{"groups":[{"type":"places","name":"Places","items":[{"id":"4adf5654f964a520977921e3","name":"Gobo - Food for the Five Senses","contact":{"phone":"2122553242","formattedPhone":"(212) 255-3242","twitter":"goborestaurant"},"location":{"address":"401 Avenue of The Americas","crossStreet":"btwn W 8th & Waverly Pl","lat":40.733447874932146,"lng":-73.9998494580509,"postalCode":"10014","city":"New York","state":"NY","country":"United States","cc":"US"},"canonicalUrl":"https://foursquare.com/v/gobo--food-for-the-five-senses/4adf5654f964a520977921e3","categories":[{"id":"4bf58dd8d48988d1d3941735","name":"Vegetarian / Vegan Restaurant","pluralName":"Vegetarian / Vegan Restaurants","shortName":"Vegetarian / Vegan","icon":"https://foursquare.com/img/categories/food/vegetarian.png","parents":["Food"],"primary":true}],"verified":false,"restricted":true,"stats":{"checkinsCount":2986,"usersCount":2239,"tipCount":53},"url":"http://www.goborestaurant.com","likes":{"count":0,"groups":[]},"reservations":{"url":"http://www.opentable.com/single.aspx?rid=3548&ref=9601"},"menu":{"type":"foodAndBeverage","url":"https://foursquare.com/v/gobo--food-for-the-five-senses/4adf5654f964a520977921e3/menu","mobileUrl":"https://foursquare.com/v/4adf5654f964a520977921e3/device_menu"}},{"id":"42daf100f964a52032261fe3","name":"Gobo - Food for the Five Senses","contact":{"phone":"2122883799","formattedPhone":"(212) 288-3799"},"location":{"address":"1426 3rd Ave","crossStreet":"at 81st","lat":40.775515827922,"lng":-73.95638006460952,"postalCode":"10028","city":"New York","state":"NY","country":"United States","cc":"US"},"canonicalUrl":"https://foursquare.com/v/gobo--food-for-the-five-senses/42daf100f964a52032261fe3","categories":[{"id":"4bf58dd8d48988d1d3941735","name":"Vegetarian / Vegan Restaurant","pluralName":"Vegetarian / Vegan Restaurants","shortName":"Vegetarian / Vegan","icon":"https://foursquare.com/img/categories/food/vegetarian.png","parents":["Food"],"primary":true}],"verified":false,"restricted":true,"stats":{"checkinsCount":1488,"usersCount":894,"tipCount":34},"likes":{"count":0,"groups":[]},"menu":{"type":"foodAndBeverage","url":"https://foursquare.com/v/gobo--food-for-the-five-senses/42daf100f964a52032261fe3/menu","mobileUrl":"https://foursquare.com/v/42daf100f964a52032261fe3/device_menu"}},{"id":"50ee2941e4b033290c05a22d","name":"Gobo Upper East Side","contact":{},"location":{"address":"1426 3rd Avenue","lat":40.76592109714031,"lng":-73.95392335496847,"postalCode":"10028","city":"Manhattan","state":"NY","country":"United States","cc":"US"},"canonicalUrl":"https://foursquare.com/v/gobo-upper-east-side/50ee2941e4b033290c05a22d","categories":[],"verified":false,"restricted":true,"stats":{"checkinsCount":3,"usersCount":3,"tipCount":0},"likes":{"count":0,"groups":[]}},{"id":"50e3b64ce4b01580bafbc026","name":"Gobo Manor","contact":{},"location":{"lat":40.934059,"lng":-74.244392,"postalCode":"07470","city":"Wayne","state":"NJ","country":"United States","cc":"US"},"canonicalUrl":"https://foursquare.com/v/gobo-manor/50e3b64ce4b01580bafbc026","categories":[{"id":"4bf58dd8d48988d181941735","name":"Museum","pluralName":"Museums","shortName":"Museum","icon":"https://foursquare.com/img/categories/arts_entertainment/museum.png","parents":["Arts & Entertainment"],"primary":true}],"verified":false,"restricted":true,"stats":{"checkinsCount":16,"usersCount":0,"tipCount":0},"likes":{"count":0,"groups":[]}},{"id":"4c41f72cd7fad13a125b08da","name":"Gobo Manor","contact":{},"location":{"lat":40.890514,"lng":-74.312678,"postalCode":"07004","city":"Wayne","state":"NJ","country":"United States","cc":"US"},"canonicalUrl":"https://foursquare.com/v/gobo-manor/4c41f72cd7fad13a125b08da","categories":[],"verified":false,"restricted":true,"stats":{"checkinsCount":6,"usersCount":5,"tipCount":0},"likes":{"count":0,"groups":[]}}]}]}